City_ID,City,Country,Lat,Lng,Max Temp,Humidity,Cloudiness,Wind Speed,Current Description
0,Magadan,RU,59.57,150.8,51.51,84,11,3.04,Few Clouds
1,Yellowknife,CA,62.46,-114.35,59.56,77,75,9.22,Broken Clouds
2,Nikolskoye,RU,59.7,30.79,48.09,94,100,11.32,Moderate Rain
3,Touros,BR,-5.2,-35.46,77.5,73,73,21.0,Broken Clouds
4,Punta Arenas,CL,-53.15,-70.92,46.51,71,100,8.05,Overcast Clouds
5,Adrar,MR,20.5,-10.07,82.54,56,100,7.07,Light Rain
6,Ushuaia,AR,-54.8,-68.3,47.82,66,75,6.91,Light Intensity Drizzle
7,Teguise,ES,29.06,-13.56,73.62,78,20,17.27,Few Clouds
8,Praia Da Vitoria,PT,38.73,-27.07,76.75,88,75,5.48,Broken Clouds
9,Namibe,AO,-15.2,12.15,64.89,87,68,11.3,Broken Clouds
10,Butaritari,KI,3.07,172.79,81.97,78,7,20.33,Clear Sky
11,Kangaatsiaq,GL,68.31,-53.46,38.93,81,100,16.69,Light Rain
12,Gondanglegi,ID,-7.75,112.01,73.56,92,60,7.67,Broken Clouds
13,Porto Novo,BJ,6.5,2.6,76.82,87,99,7.74,Overcast Clouds
14,Mayumba,GA,-3.43,10.66,74.19,87,71,11.27,Broken Clouds
15,Jamestown,US,42.1,-79.24,77.02,40,75,19.57,Broken Clouds
16,Pangnirtung,CA,66.15,-65.71,51.8,58,20,4.61,Few Clouds
17,Busselton,AU,-33.65,115.33,47.53,79,0,10.25,Clear Sky
18,Mataura,NZ,-46.19,168.86,44.82,92,57,2.08,Broken Clouds
19,Suntar,RU,62.14,117.63,37.13,97,99,4.54,Overcast Clouds
20,Tasiilaq,GL,65.61,-37.64,42.96,94,100,5.35,Overcast Clouds
21,Vizinga,RU,61.07,50.1,48.25,94,100,10.8,Light Rain
22,Avarua,CK,-21.21,-159.78,78.85,78,8,5.75,Clear Sky
23,Rikitea,PF,-23.12,-134.97,72.99,79,2,4.54,Clear Sky
24,Arraial Do Cabo,BR,-22.97,-42.03,67.96,60,0,16.11,Clear Sky
25,Baghdad,IQ,33.34,44.4,87.71,27,0,3.44,Clear Sky
26,Hithadhoo,MV,-0.6,73.08,80.73,74,89,14.81,Overcast Clouds
27,Lavrentiya,RU,65.58,-171.0,44.74,98,100,11.07,Light Rain
28,Hermanus,ZA,-34.42,19.23,56.66,54,10,14.81,Clear Sky
29,Camacupa,AO,-12.02,17.48,69.49,41,79,4.34,Broken Clouds
30,Iberia,US,29.95,-91.75,93.96,52,0,6.91,Clear Sky
31,Priverno,IT,41.47,13.19,77.45,90,100,2.15,Overcast Clouds
32,Dikson,RU,73.51,80.55,41.14,89,89,12.88,Overcast Clouds
33,North Bend,US,43.41,-124.22,64.17,100,44,1.01,Scattered Clouds
34,Ponta Do Sol,PT,32.67,-17.1,74.71,77,96,6.89,Overcast Clouds
35,Kaeo,NZ,-35.1,173.78,54.32,90,100,4.0,Overcast Clouds
36,Vossevangen,NO,60.62,6.42,56.34,90,11,3.8,Few Clouds
37,Saint-Francois,FR,46.42,3.91,67.44,73,0,3.44,Clear Sky
38,New Norfolk,AU,-42.78,147.06,50.92,72,86,1.01,Overcast Clouds
39,Kapaa,US,22.08,-159.32,83.1,65,20,13.8,Few Clouds
40,Sao Filipe,CV,14.9,-24.5,77.81,79,95,7.94,Overcast Clouds
41,Kruisfontein,ZA,-34.0,24.73,54.88,73,0,12.28,Clear Sky
42,Mar Del Plata,AR,-38.0,-57.56,57.22,51,0,11.99,Clear Sky
43,Kavieng,PG,-2.57,150.8,82.49,69,91,16.84,Overcast Clouds
44,Upernavik,GL,72.79,-56.15,39.65,91,100,20.11,Overcast Clouds
45,Taoudenni,ML,22.68,-3.98,101.25,16,17,5.44,Few Clouds
46,Paragominas,BR,-2.97,-47.48,94.06,32,50,3.18,Scattered Clouds
47,Chute-Aux-Outardes,CA,49.12,-68.4,62.58,88,100,10.36,Overcast Clouds
48,Geraldton,AU,-28.77,114.6,55.81,54,0,17.27,Clear Sky
49,Tiznit,MA,29.58,-9.5,82.53,42,29,3.33,Scattered Clouds
50,Havre-Saint-Pierre,CA,50.23,-63.6,68.36,88,100,9.22,Overcast Clouds
51,Dingle,PH,11.0,122.67,76.06,91,100,3.96,Overcast Clouds
52,Padang,ID,-0.95,100.35,76.93,86,54,3.69,Light Rain
53,Port Alfred,ZA,-33.59,26.89,54.18,77,0,3.0,Clear Sky
54,Lagoa,PT,39.05,-27.98,71.76,76,62,6.73,Broken Clouds
55,Pevek,RU,69.7,170.31,32.77,89,100,12.03,Overcast Clouds
56,Hilo,US,19.73,-155.09,87.28,72,20,11.5,Few Clouds
57,Kati,ML,12.74,-8.07,78.21,91,33,3.4,Light Rain
58,Natal,BR,-5.79,-35.21,80.82,69,20,19.57,Few Clouds
59,Kiama,AU,-34.68,150.87,57.0,92,40,5.86,Scattered Clouds
60,Berceni,RO,44.93,26.12,71.47,94,81,5.44,Broken Clouds
61,Manali,IN,13.17,80.27,78.89,80,70,4.81,Broken Clouds
62,Alice Springs,AU,-23.7,133.88,54.95,88,75,4.61,Broken Clouds
63,Kamloops,CA,50.67,-120.32,85.19,32,40,4.61,Scattered Clouds
64,Port Elizabeth,ZA,-33.92,25.57,59.29,75,0,18.41,Clear Sky
65,Dongsheng,CN,39.82,109.98,58.37,41,0,2.39,Clear Sky
66,Piacabucu,BR,-10.41,-36.43,73.09,80,100,14.27,Overcast Clouds
67,Camarillo,US,34.22,-119.04,111.6,49,0,12.66,Clear Sky
68,Airai,TL,-8.93,125.41,56.44,80,72,2.98,Broken Clouds
69,Fortuna,US,40.6,-124.16,65.32,83,20,8.05,Few Clouds
70,Bud,US,39.45,-86.18,83.75,49,0,6.87,Clear Sky
71,Nadym,RU,65.53,72.52,39.76,83,50,6.96,Scattered Clouds
72,Kaitangata,NZ,-46.28,169.85,47.08,85,42,3.24,Scattered Clouds
73,Garowe,SO,8.41,48.48,80.24,48,94,16.26,Overcast Clouds
74,College,US,64.86,-147.8,61.59,62,75,8.05,Broken Clouds
75,Sao Joao Da Barra,BR,-21.64,-41.05,69.89,59,17,10.76,Few Clouds
76,Port Augusta,AU,-32.5,137.77,46.67,76,10,7.02,Clear Sky
77,Cape Town,ZA,-33.93,18.42,67.37,40,0,3.44,Clear Sky
78,Codrington,AU,-38.27,141.97,46.9,72,100,8.01,Overcast Clouds
79,Akdepe,TM,42.06,59.38,77.09,19,0,9.73,Clear Sky
80,Wanning,CN,18.8,110.4,78.78,87,7,3.49,Clear Sky
81,Georgetown,MY,5.41,100.34,82.89,89,20,4.61,Moderate Rain
82,Olmos,PE,-5.98,-79.75,85.71,37,78,10.78,Broken Clouds
83,Silute,LT,55.35,21.48,53.11,74,50,6.82,Scattered Clouds
84,Chokurdakh,RU,70.63,147.92,37.0,71,100,7.07,Overcast Clouds
85,Matadi,CD,-5.82,13.45,77.23,68,93,10.04,Overcast Clouds
86,Ancud,CL,-41.87,-73.82,46.22,78,100,7.81,Overcast Clouds
87,Kahului,US,20.89,-156.47,80.96,71,75,9.22,Broken Clouds
88,Hami,CN,42.8,93.45,73.74,26,99,7.94,Overcast Clouds
89,Barrow,US,71.29,-156.79,39.22,93,100,18.41,Mist
90,Ashqelon,IL,31.67,34.57,84.09,82,1,5.35,Clear Sky
91,Lebu,CL,-37.62,-73.65,53.29,78,5,10.27,Clear Sky
92,Taltal,CL,-25.4,-70.48,58.01,75,24,4.32,Few Clouds
93,Kismayo,SO,-0.36,42.55,74.91,78,58,15.95,Broken Clouds
94,Mahibadhoo,MV,3.78,72.97,78.42,82,100,15.57,Light Rain
95,Sambava,MG,-14.27,50.17,66.34,89,8,4.5,Clear Sky
96,Blagoyevo,RU,63.37,47.92,46.42,62,100,10.76,Light Rain
97,Sinnamary,GF,5.38,-52.95,81.3,82,98,8.9,Overcast Clouds
98,Sur,OM,22.57,59.53,85.1,60,2,10.38,Clear Sky
99,Hambantota,LK,6.12,81.12,77.74,83,100,17.72,Overcast Clouds
100,Olafsvik,IS,64.89,-23.71,47.03,83,100,14.88,Overcast Clouds
101,Meulaboh,ID,4.14,96.13,75.34,91,100,5.1,Overcast Clouds
102,Eydhafushi,MV,5.1,73.07,78.84,76,100,19.44,Overcast Clouds
103,Moree,AU,-29.47,149.85,51.67,90,64,8.99,Broken Clouds
104,Luganville,VU,-15.53,167.17,77.13,80,99,13.42,Overcast Clouds
105,Qaanaaq,GL,77.48,-69.36,35.33,66,0,3.42,Clear Sky
106,Tuatapere,NZ,-46.13,167.68,50.07,95,94,3.6,Overcast Clouds
107,Klaksvik,FO,62.23,-6.59,50.92,89,13,16.84,Few Clouds
108,Vostok,RU,46.49,135.88,49.42,95,0,4.25,Clear Sky
109,Muros,ES,42.78,-9.06,65.68,88,78,1.54,Broken Clouds
110,Bluff,NZ,-46.6,168.33,51.69,90,100,6.08,Overcast Clouds
111,Saldanha,ZA,-33.01,17.94,69.85,46,71,10.58,Broken Clouds
112,Ambilobe,MG,-13.2,49.05,70.99,81,95,1.48,Overcast Clouds
113,Mata Grande,BR,-9.12,-37.73,69.85,65,59,12.5,Broken Clouds
114,Puerto Ayora,EC,-0.74,-90.35,76.96,86,90,10.0,Overcast Clouds
115,Leningradskiy,RU,69.38,178.42,33.37,99,100,14.83,Snow
116,Jasper,US,37.2,-94.35,91.98,30,0,6.91,Clear Sky
117,Santa Isabel,BR,-23.32,-46.22,67.3,40,0,6.29,Clear Sky
118,Novyy Urengoy,RU,66.08,76.63,39.96,88,86,8.37,Overcast Clouds
119,Bredasdorp,ZA,-34.53,20.04,52.2,72,9,8.14,Clear Sky
120,Vaini,TO,-21.2,-175.2,73.56,78,20,8.05,Few Clouds
121,Bubaque,GW,11.28,-15.83,79.99,81,100,16.98,Light Rain
122,Esperance,AU,-33.87,121.9,51.04,82,30,6.29,Scattered Clouds
123,Namwala,ZM,-15.75,26.44,71.65,36,41,7.34,Scattered Clouds
124,Port Hardy,CA,50.7,-127.42,57.38,94,100,5.75,Fog
125,Bo Rai,TH,12.57,102.54,78.73,91,100,0.65,Overcast Clouds
126,Wanxian,CN,30.8,108.39,67.6,96,100,3.74,Overcast Clouds
127,Atuona,PF,-9.8,-139.03,76.96,71,10,24.56,Clear Sky
128,Carnarvon,AU,-24.87,113.63,65.03,43,2,18.01,Clear Sky
129,Harper,LR,4.38,-7.72,75.49,90,100,11.99,Moderate Rain
130,Pangkalanbuun,ID,-2.68,111.62,73.4,98,46,2.62,Scattered Clouds
131,Clyde River,CA,70.47,-68.59,41.23,81,75,11.5,Broken Clouds
132,Albany,US,42.6,-73.97,78.46,51,19,13.13,Few Clouds
133,Sao Jose Da Coroa Grande,BR,-8.9,-35.15,74.55,76,75,13.13,Broken Clouds
134,Tigil,RU,57.8,158.67,49.24,92,1,5.88,Clear Sky
135,Hasaki,JP,35.73,140.83,79.2,89,33,18.77,Scattered Clouds
136,Boa Vista,BR,2.82,-60.67,87.78,58,40,4.61,Scattered Clouds
137,Saint-Georges,GD,12.06,-61.75,85.68,74,20,11.5,Few Clouds
138,Khatanga,RU,71.97,102.5,38.79,90,100,17.38,Overcast Clouds
139,Sibolga,ID,1.74,98.78,75.38,89,86,3.49,Overcast Clouds
140,Provideniya,RU,64.38,-173.3,46.67,98,100,7.31,Moderate Rain
141,Rio Grande,BR,-32.03,-52.1,68.11,73,33,10.6,Scattered Clouds
142,Nantucket,US,41.28,-70.1,82.54,74,0,18.41,Clear Sky
143,Vardo,NO,70.37,31.11,39.18,81,20,9.22,Few Clouds
144,Nouakchott,MR,18.09,-15.98,85.93,83,100,12.01,Light Rain
145,Portales,US,34.19,-103.33,74.73,45,60,11.61,Light Rain
146,Sokoni,TZ,-6.43,39.55,75.67,79,13,15.9,Few Clouds
147,Qasigiannguit,GL,68.82,-51.19,39.45,82,89,6.69,Overcast Clouds
148,Mayo,US,38.89,-76.51,85.98,48,20,11.5,Few Clouds
149,Bardiyah,LY,31.76,25.09,78.91,72,0,10.94,Clear Sky
150,Batagay-Alyta,RU,67.8,130.41,44.87,82,100,4.59,Overcast Clouds
151,Svetlogorsk,BY,52.63,29.73,51.19,62,8,6.13,Clear Sky
152,Kitimat,CA,54.05,-128.65,68.38,53,10,5.97,Clear Sky
153,Vila Velha,BR,-20.33,-40.29,69.75,73,75,9.22,Broken Clouds
154,Zatoka,UA,46.07,30.47,76.53,55,100,11.97,Overcast Clouds
155,Fairbanks,US,64.84,-147.72,61.61,63,20,8.05,Few Clouds
156,Soskovo,RU,52.75,35.38,53.94,70,22,6.22,Few Clouds
157,Xiaolingwei,CN,32.03,118.85,69.78,85,100,1.83,Overcast Clouds
158,Victoria,HK,22.29,114.16,85.32,86,8,4.0,Clear Sky
159,Coquimbo,CL,-29.95,-71.34,55.13,66,100,5.75,Overcast Clouds
160,Egvekinot,RU,66.32,-179.17,36.66,90,100,17.2,Overcast Clouds
161,Castro,BR,-24.79,-50.01,64.11,63,12,6.6,Few Clouds
162,Scarborough,GB,54.28,-0.4,60.37,87,43,1.99,Scattered Clouds
163,Norman Wells,CA,65.28,-126.83,64.44,59,75,3.44,Broken Clouds
164,Broken Hill,AU,-31.95,141.43,47.21,61,72,3.69,Broken Clouds
165,Sao Mateus Do Sul,BR,-25.87,-50.38,66.2,55,0,2.86,Clear Sky
166,Ondangwa,NA,-17.92,15.95,66.2,30,8,3.44,Clear Sky
167,Lanas,PH,12.05,121.92,83.35,77,97,14.61,Overcast Clouds
168,Saint George,US,37.1,-113.58,105.44,13,0,8.05,Clear Sky
169,Pareora,NZ,-44.49,171.21,52.18,89,100,3.91,Overcast Clouds
170,Marawi,PH,8.0,124.29,68.72,93,100,4.65,Overcast Clouds
171,Bengkulu,ID,-3.8,102.27,75.51,90,90,5.14,Overcast Clouds
172,Miyako,JP,39.64,141.95,73.58,93,93,4.85,Light Rain
173,Flinders,AU,-34.58,150.86,53.19,90,26,3.0,Scattered Clouds
174,Fuerte,PH,17.54,120.36,79.81,84,58,4.38,Broken Clouds
175,Cayenne,GF,4.93,-52.33,86.04,70,20,10.36,Few Clouds
176,Mollendo,PE,-17.02,-72.01,61.93,76,67,8.61,Broken Clouds
177,Caloundra,AU,-26.8,153.13,62.11,91,79,3.0,Broken Clouds
178,Kenai,US,60.55,-151.26,53.69,94,100,0.0,Light Rain
179,Thompson,CA,55.74,-97.86,50.16,66,100,4.61,Overcast Clouds
180,Abu Dhabi,AE,24.47,54.37,89.62,81,0,6.91,Clear Sky
181,Sao Miguel Do Araguaia,BR,-13.28,-50.16,94.64,17,1,7.38,Clear Sky
182,Quartucciu,IT,39.25,9.18,77.25,67,20,11.99,Few Clouds
183,Aranos,NA,-24.13,19.12,73.54,21,95,11.9,Overcast Clouds
184,Prescott,US,34.54,-112.47,93.96,28,5,1.99,Clear Sky
185,Ghanzi,BW,-21.57,21.78,64.74,36,0,10.87,Clear Sky
186,Pierre,US,44.37,-100.35,93.85,30,0,5.01,Clear Sky
187,Lazaro Cardenas,MX,17.96,-102.2,86.85,64,97,8.61,Overcast Clouds
188,Bambous Virieux,MU,-20.34,57.76,64.65,88,20,4.61,Few Clouds
189,Hobyo,SO,5.35,48.53,75.69,87,54,21.18,Broken Clouds
190,Saskylakh,RU,71.92,114.08,39.72,96,100,12.86,Light Rain
191,Vanimo,PG,-2.67,141.3,76.53,90,86,4.21,Overcast Clouds
192,Sobolevo,RU,54.43,31.9,53.62,55,98,9.37,Overcast Clouds
193,Khorixas,NA,-20.37,14.97,63.79,49,8,5.59,Clear Sky
194,Russell,US,32.35,-85.2,92.97,49,0,8.05,Clear Sky
195,Severo-Kurilsk,RU,50.68,156.12,55.17,77,100,3.87,Overcast Clouds
196,Bergama,TR,39.12,27.18,73.0,76,0,3.8,Clear Sky
197,Baykit,RU,61.67,96.37,40.46,94,100,9.84,Light Rain
198,Salalah,OM,17.02,54.09,77.09,88,20,2.3,Few Clouds
199,Hazleton,US,40.96,-75.97,79.03,43,40,0.0,Scattered Clouds
200,Krasne,UA,49.91,24.61,55.76,60,99,6.04,Overcast Clouds
201,Gunzburg,DE,48.45,10.27,61.84,86,52,2.64,Broken Clouds
202,Victoria Point,AU,-27.58,153.3,59.43,93,46,7.56,Scattered Clouds
203,Tessaoua,NE,13.76,7.99,80.06,56,100,15.48,Light Rain
204,Fairlie,GB,55.76,-4.86,60.71,79,92,1.01,Overcast Clouds
205,Ostersund,SE,63.18,14.64,48.65,76,0,51.0,Clear Sky
206,Alto Longa,BR,-5.25,-42.21,95.85,24,42,7.09,Scattered Clouds
207,La Ligua,CL,-32.45,-71.23,55.15,77,100,5.84,Overcast Clouds
208,Magistralnyy,RU,56.17,107.45,56.55,86,100,11.07,Light Rain
209,Alyangula,AU,-13.85,136.42,73.53,89,0,7.31,Clear Sky
210,Poquoson,US,37.12,-76.35,91.04,48,75,8.05,Broken Clouds
211,Torbay,CA,47.67,-52.73,77.88,72,75,12.66,Broken Clouds
212,Kichera,RU,55.94,110.1,47.37,98,100,4.99,Light Rain
213,Usinsk,RU,65.99,57.53,38.19,71,28,8.55,Scattered Clouds
214,Tiksi,RU,71.69,128.87,39.09,97,73,5.19,Broken Clouds
215,Palauig,PH,15.44,119.9,81.52,81,89,0.87,Light Rain
216,Saint Anthony,US,45.02,-93.22,89.89,41,0,10.36,Clear Sky
217,Faya,SA,18.39,42.45,71.71,33,16,7.18,Few Clouds
218,Husavik,IS,66.04,-17.34,59.29,62,98,25.3,Overcast Clouds
219,Mangrol,IN,21.12,70.12,80.4,84,100,11.65,Moderate Rain
220,Lawton,US,34.61,-98.39,91.31,52,40,13.8,Scattered Clouds
221,Dunedin,NZ,-45.87,170.5,52.81,85,35,3.11,Scattered Clouds
222,Chuy,UY,-33.7,-53.46,62.56,72,77,8.19,Broken Clouds
223,Aykhal,RU,66.0,111.5,37.44,99,100,4.23,Light Rain
224,Lorengau,PG,-2.02,147.27,80.87,82,82,9.64,Broken Clouds
225,Valenca Do Piaui,BR,-6.41,-41.75,90.25,27,57,10.31,Broken Clouds
226,Kokopo,PG,-4.35,152.26,76.26,85,76,2.48,Broken Clouds
227,Berlevag,NO,70.86,29.09,44.55,76,75,11.5,Broken Clouds
228,Cabo San Lucas,MX,22.89,-109.91,91.71,51,75,11.5,Broken Clouds
229,Sarangani,PH,5.4,125.46,82.62,73,97,1.61,Overcast Clouds
230,Kodiak,US,57.79,-152.41,54.91,94,100,10.36,Light Rain
231,Camacha,PT,33.08,-16.33,69.22,68,40,11.5,Scattered Clouds
232,Goderich,CA,43.75,-81.72,75.52,60,43,11.5,Scattered Clouds
233,Visby,SE,57.64,18.3,52.02,87,40,5.75,Scattered Clouds
234,Rocha,UY,-34.48,-54.33,62.91,75,100,6.15,Overcast Clouds
235,Belyy Yar,RU,53.6,91.39,60.69,63,0,4.47,Clear Sky
236,Santa Maria Do Suacui,BR,-18.19,-42.41,68.4,44,16,7.36,Few Clouds
237,Mayskiy,RU,47.69,40.1,72.81,38,21,11.99,Few Clouds
238,Reitz,ZA,-27.8,28.43,46.53,29,25,8.21,Scattered Clouds
239,Isla Mujeres,MX,21.23,-86.73,80.65,66,68,10.49,Broken Clouds
240,Tautira,PF,-17.73,-149.15,77.31,72,0,18.23,Clear Sky
241,Sharjah,AE,25.36,55.4,91.38,70,0,5.75,Clear Sky
242,Plavsk,RU,53.71,37.29,53.08,72,16,5.1,Few Clouds
243,Luderitz,NA,-26.65,15.16,57.67,79,3,6.04,Clear Sky
244,Hobart,AU,-42.88,147.33,51.26,79,20,5.75,Few Clouds
245,Lata,PT,40.16,-8.33,65.8,91,5,2.86,Clear Sky
246,Sakyla,FI,61.03,22.33,46.89,88,60,6.8,Broken Clouds
247,Chumikan,RU,54.72,135.31,52.16,89,44,4.18,Scattered Clouds
248,Colinas,BR,-6.03,-44.25,95.31,24,20,6.49,Few Clouds
249,Port Macquarie,AU,-31.43,152.92,48.88,90,1,5.21,Clear Sky
250,Ulaanbaatar,MN,47.91,106.88,37.53,93,0,0.0,Clear Sky
251,Rioja,AR,-29.41,-66.85,74.44,16,0,7.2,Clear Sky
252,Pachuca,MX,20.12,-98.73,72.55,42,88,11.14,Overcast Clouds
253,Arlit,NE,18.74,7.39,100.9,14,55,9.17,Broken Clouds
254,Buritis,BR,-15.62,-46.42,81.16,31,0,8.48,Clear Sky
255,San Patricio,US,28.02,-97.52,91.29,51,100,10.85,Overcast Clouds
256,Half Moon Bay,US,37.46,-122.43,83.05,64,0,18.41,Clear Sky
257,Cherskiy,RU,68.75,161.3,37.56,87,100,4.21,Overcast Clouds
258,Homer,US,59.64,-151.55,55.29,78,100,5.99,Light Rain
259,Avera,US,33.19,-82.53,91.54,43,61,1.77,Broken Clouds
260,General Higinio Morinigo,PY,-25.95,-55.92,75.99,44,0,7.07,Clear Sky
261,Petrovskoye,RU,57.01,39.27,51.46,70,78,13.47,Broken Clouds
262,Jiayuguan,CN,39.82,98.3,65.21,36,30,2.37,Scattered Clouds
263,Broome,US,42.25,-75.83,78.62,52,75,10.36,Broken Clouds
264,Solnechnyy,RU,50.72,136.63,52.16,97,12,4.27,Few Clouds
265,Cape Coast,GH,5.11,-1.25,74.23,93,92,11.03,Overcast Clouds
266,Koratla,IN,18.82,78.72,78.73,83,100,5.14,Overcast Clouds
267,Bathsheba,BB,13.22,-59.52,86.61,66,40,13.8,Scattered Clouds
268,Burns Lake,CA,54.23,-125.75,71.02,45,5,6.42,Clear Sky
269,Zyryanka,RU,65.75,150.85,49.44,46,100,4.79,Overcast Clouds
270,Newark,US,40.74,-74.17,86.95,37,20,19.57,Few Clouds
271,Buraydah,SA,26.33,43.98,93.65,11,52,9.31,Broken Clouds
272,Zheleznodorozhnyy,RU,55.75,38.0,56.75,62,52,10.85,Broken Clouds
273,Ust-Maya,RU,60.42,134.53,46.29,95,100,2.01,Overcast Clouds
274,Basqal,AZ,40.76,48.39,67.48,34,0,5.23,Clear Sky
275,Hay River,CA,60.82,-115.8,66.16,55,75,4.61,Broken Clouds
276,Zhanakorgan,KZ,43.91,67.25,76.98,19,0,4.68,Clear Sky
277,Mareeba,AU,-17.0,145.43,66.92,88,48,3.53,Scattered Clouds
278,Itarema,BR,-2.92,-39.92,80.19,66,2,16.13,Clear Sky
279,Beloha,MG,-25.17,45.05,61.7,49,86,12.75,Overcast Clouds
280,Gotsu,JP,35.0,132.22,74.43,94,100,5.41,Overcast Clouds
281,Longyearbyen,SJ,78.22,15.64,37.24,81,40,3.44,Scattered Clouds
282,Kirakira,SB,-10.45,161.92,79.18,84,99,11.9,Light Rain
283,Santa Cruz De Tenerife,ES,28.47,-16.25,76.91,89,20,12.66,Fog
284,Talnakh,RU,69.49,88.4,36.21,85,14,2.46,Few Clouds
285,Rong Kwang,TH,18.34,100.32,75.24,96,100,2.08,Overcast Clouds
286,Laguna,US,38.42,-121.42,99.09,31,0,8.05,Clear Sky
287,Bollnas,SE,61.35,16.39,51.93,70,96,4.97,Overcast Clouds
288,Kharan,PK,28.58,65.42,87.64,20,2,1.57,Clear Sky
289,Wuwei,CN,37.93,102.64,64.2,50,76,4.92,Broken Clouds
290,Terrace,CA,54.52,-128.6,67.91,77,75,5.75,Broken Clouds
291,Snezhnogorsk,RU,69.19,33.25,35.38,73,98,10.4,Overcast Clouds
292,Arman,RU,59.7,150.17,51.75,82,8,3.91,Clear Sky
293,Noumea,NC,-22.28,166.46,70.0,99,79,10.36,Broken Clouds
294,Matara,LK,5.95,80.54,76.39,89,97,13.96,Overcast Clouds
295,Komsomolskiy,UZ,40.43,71.72,70.52,40,1,6.91,Clear Sky
296,Carballo,ES,43.21,-8.69,65.89,89,41,2.24,Scattered Clouds
297,Bandarbeyla,SO,9.49,50.81,76.86,81,99,23.06,Overcast Clouds
298,Shibetsu,JP,43.66,145.13,61.21,95,100,11.3,Overcast Clouds
299,Bethel,US,41.37,-73.41,84.72,42,20,13.8,Few Clouds
300,Ust-Kulom,RU,61.69,53.69,46.69,74,100,8.23,Overcast Clouds
301,Gigmoto,PH,13.78,124.39,80.38,87,83,8.19,Broken Clouds
302,Poum,NC,-20.23,164.02,73.09,78,76,18.68,Broken Clouds
303,Sonoita,MX,31.85,-112.83,101.26,19,0,10.36,Clear Sky
304,Road Town,VG,18.42,-64.62,87.89,70,40,3.44,Scattered Clouds
305,Roald,NO,62.58,6.13,57.76,87,0,13.8,Clear Sky
306,Diego De Almagro,CL,-26.37,-70.05,65.89,27,0,9.31,Clear Sky
307,Haines Junction,CA,60.75,-137.51,58.95,44,10,5.75,Clear Sky
308,East London,ZA,-33.02,27.91,58.51,64,0,15.48,Clear Sky
309,Benemerito De Las Americas,MX,16.52,-90.64,92.91,43,94,4.36,Overcast Clouds
310,Maarianhamina,AX,60.1,19.93,46.26,93,20,3.44,Few Clouds
311,Ribeira Grande,PT,38.52,-28.7,75.6,83,20,3.44,Few Clouds
312,Tateyama,JP,34.98,139.87,82.09,85,51,17.25,Broken Clouds
313,Saint-Philippe,RE,-21.36,55.77,67.21,79,19,3.94,Few Clouds
314,Zumarraga,PH,11.64,124.84,79.83,83,100,3.38,Overcast Clouds
315,Rawah,IQ,34.48,41.91,94.8,9,0,8.46,Clear Sky
316,Belmonte,BR,-15.86,-38.88,69.08,77,90,11.81,Overcast Clouds
317,Morondava,MG,-20.28,44.28,69.22,61,0,20.07,Clear Sky
318,Sitka,US,57.05,-135.33,58.89,82,20,5.75,Few Clouds
319,Guerrero Negro,MX,27.98,-114.06,81.16,60,15,12.75,Few Clouds
320,Roma,US,43.21,-75.46,77.72,51,20,16.11,Few Clouds
321,Vilhena,BR,-12.74,-60.15,93.42,26,0,5.75,Clear Sky
322,Grindavik,IS,63.84,-22.43,48.67,87,75,17.27,Broken Clouds
323,Ixtapa,MX,20.7,-105.2,90.23,62,40,10.36,Scattered Clouds
324,Chicama,PE,-7.84,-79.15,63.14,58,18,11.21,Few Clouds
325,Ranong,TH,9.97,98.63,77.72,91,100,2.01,Overcast Clouds
326,Bondoukou,CI,8.03,-2.8,70.57,98,100,3.83,Moderate Rain
327,Kaduqli,SD,11.02,29.72,72.64,89,1,4.9,Clear Sky
328,George,ZA,-33.96,22.46,47.75,87,0,2.3,Clear Sky
329,Viedma,AR,-40.81,-63.0,64.18,30,97,4.18,Overcast Clouds
330,Jamame,SO,0.07,42.75,73.18,79,92,10.38,Overcast Clouds
331,Juneau,US,58.3,-134.42,60.8,82,75,8.05,Light Rain
332,Boulder,US,40.08,-105.35,87.84,28,0,3.44,Clear Sky
333,Beyla,GN,8.68,-8.63,68.65,96,91,2.82,Moderate Rain
334,Ouesso,CG,1.61,16.05,73.53,89,99,0.94,Light Rain
335,Aklavik,CA,68.22,-135.01,65.68,45,60,3.91,Broken Clouds
336,Ossora,RU,59.24,163.07,52.2,59,2,6.69,Clear Sky
337,Chichawatni,PK,30.53,72.7,85.19,55,0,5.46,Clear Sky
338,Alugan,PH,12.22,125.48,78.22,88,31,6.33,Scattered Clouds
339,Oktyabrskiy,RU,54.48,53.47,69.94,41,87,6.93,Overcast Clouds
340,Bereda,ES,43.27,-7.54,60.15,95,42,0.89,Scattered Clouds
341,Nome,US,64.5,-165.41,50.07,88,100,9.22,Light Rain
342,Kidal,ML,18.44,1.41,92.26,30,64,12.44,Broken Clouds
343,Chimore,BO,-16.98,-65.13,93.02,24,1,5.97,Clear Sky
344,Kununurra,AU,-15.77,128.73,71.58,88,40,0.0,Scattered Clouds
345,Villa Carlos Paz,AR,-31.42,-64.5,76.39,19,3,11.99,Clear Sky
346,Vao,NC,-22.67,167.48,71.01,68,100,17.98,Overcast Clouds
347,Alofi,NU,-19.06,-169.92,73.29,94,75,12.66,Light Intensity Drizzle
348,Kamenka,RU,51.32,42.77,65.91,48,13,2.42,Few Clouds
349,Capreol,CA,46.71,-80.92,65.55,52,75,12.66,Broken Clouds
350,Caborca,MX,30.58,-111.1,92.75,33,1,13.2,Clear Sky
351,Prince Rupert,CA,54.32,-130.32,62.29,82,100,11.5,Light Rain
352,Pangai,TO,-19.8,-174.35,75.31,60,20,6.91,Few Clouds
353,Verkhoyansk,RU,67.54,133.38,49.08,80,60,2.68,Broken Clouds
354,Caravelas,BR,-17.71,-39.25,66.36,80,98,11.23,Overcast Clouds
355,Auki,SB,-8.77,160.7,77.81,87,99,4.83,Overcast Clouds
356,Sisimiut,GL,66.94,-53.67,37.02,90,91,7.4,Overcast Clouds
357,Port Lincoln,AU,-34.73,135.87,50.02,79,52,6.73,Broken Clouds
358,Mount Gambier,AU,-37.83,140.77,48.34,79,100,5.55,Overcast Clouds
359,Floro,NO,61.6,5.03,58.96,82,0,9.22,Clear Sky
360,Stokmarknes,NO,68.56,14.91,48.16,93,100,4.61,Overcast Clouds
361,Barentu,ER,15.11,37.59,70.99,80,55,4.56,Broken Clouds
362,Sioux Lookout,CA,50.1,-91.92,59.07,58,75,9.22,Broken Clouds
363,Grand Gaube,MU,-20.01,57.66,64.8,72,8,6.91,Clear Sky
364,Necochea,AR,-38.55,-58.74,63.3,63,100,7.65,Overcast Clouds
365,Yumen,CN,40.28,97.2,65.98,29,68,3.2,Broken Clouds
366,Korcula,HR,42.96,17.14,77.25,74,43,0.67,Scattered Clouds
367,Rorvik,NO,64.86,11.24,49.98,93,40,3.44,Scattered Clouds
368,Pisco,PE,-13.7,-76.22,66.25,68,20,19.57,Few Clouds
369,Roros,NO,62.57,11.38,44.44,81,100,6.91,Overcast Clouds
370,Tuktoyaktuk,CA,69.45,-133.04,60.8,63,20,6.91,Few Clouds
371,Huarmey,PE,-10.07,-78.15,66.92,71,1,13.2,Clear Sky
372,Bilibino,RU,68.05,166.44,35.67,70,48,1.95,Scattered Clouds
373,Cockburn Town,TC,21.46,-71.14,85.96,66,40,13.8,Scattered Clouds
374,Zhangye,CN,38.93,100.45,65.37,43,20,7.09,Few Clouds
375,La Ronge,CA,55.1,-105.28,79.02,50,20,9.22,Few Clouds
376,Stephenville Crossing,CA,48.5,-58.43,73.53,73,75,9.22,Broken Clouds
377,Kpandae,GH,8.47,-0.01,72.73,96,99,5.61,Overcast Clouds
378,Naron,ES,43.52,-8.15,67.05,90,11,3.47,Few Clouds
379,Te Anau,NZ,-45.42,167.72,51.44,94,87,2.42,Overcast Clouds
380,Duldurga,RU,50.68,113.59,42.08,76,16,5.14,Few Clouds
381,Yinchuan,CN,38.47,106.27,67.71,31,4,3.69,Clear Sky
382,Shakawe,BW,-18.37,21.85,65.55,33,4,6.8,Clear Sky
383,Barra Do Garcas,BR,-15.89,-52.26,93.78,29,0,5.75,Clear Sky
384,Le Port,RE,-20.94,55.29,68.25,71,5,5.95,Clear Sky
385,Kerman,IR,30.28,57.08,67.86,13,0,4.61,Clear Sky
386,Ouallam,NE,14.32,2.09,87.84,54,100,7.9,Overcast Clouds
387,Paita,PE,-5.09,-81.11,66.56,73,43,20.42,Scattered Clouds
388,Atherton,GB,53.52,-2.49,64.74,69,10,1.99,Clear Sky
389,Marsabit,KE,2.33,37.99,66.76,51,5,24.94,Clear Sky
390,Cristalina,BR,-16.77,-47.61,69.24,42,10,7.45,Clear Sky
391,Salinopolis,BR,-0.61,-47.36,80.38,81,79,13.4,Broken Clouds
392,Pacasmayo,PE,-7.4,-79.57,66.34,71,53,16.62,Broken Clouds
393,Mogwase,ZA,-25.18,27.27,59.61,49,0,6.31,Clear Sky
394,Samarai,PG,-10.62,150.67,79.21,86,100,22.17,Overcast Clouds
395,Progreso,MX,21.28,-89.67,91.11,67,88,13.18,Overcast Clouds
396,Otane,NZ,-39.88,176.63,49.01,67,23,1.92,Few Clouds
397,Udachnyy,RU,66.42,112.4,38.88,90,100,5.93,Overcast Clouds
398,Northam,GB,51.03,-4.22,68.4,77,100,10.92,Overcast Clouds
399,West Wendover,US,40.74,-114.07,90.61,16,0,10.36,Clear Sky
400,Jardim,BR,-21.48,-56.14,84.63,34,0,3.85,Clear Sky
401,Ha Tinh,VN,18.33,105.9,77.07,90,46,3.02,Scattered Clouds
402,Castrillon,ES,43.4,-6.79,59.7,94,19,1.99,Few Clouds
403,Tutoia,BR,-2.76,-42.27,79.12,80,6,9.91,Clear Sky
404,Birjand,IR,32.87,59.22,70.27,16,0,6.91,Clear Sky
405,Vila,PT,42.03,-8.16,59.7,75,100,1.79,Overcast Clouds
406,Carutapera,BR,-1.2,-46.02,81.12,71,72,9.86,Broken Clouds
407,Moranbah,AU,-22.0,148.05,59.83,88,86,10.22,Overcast Clouds
408,Sfantu Gheorghe,RO,45.87,25.78,64.27,93,78,2.98,Broken Clouds
409,Faanui,PF,-16.48,-151.75,78.53,62,46,21.07,Scattered Clouds
410,Scottsbluff,US,41.87,-103.67,91.78,24,0,12.66,Clear Sky
411,Elat,IL,29.56,34.95,94.84,43,0,16.11,Clear Sky
412,Tessalit,ML,20.2,1.01,96.28,11,100,13.94,Overcast Clouds
413,Narsaq,GL,60.92,-46.05,52.02,51,4,1.28,Clear Sky
414,Buala,SB,-8.14,159.59,80.53,83,98,9.73,Light Rain
415,Iralaya,HN,15.0,-83.23,80.92,76,100,3.36,Overcast Clouds
416,Jiuquan,CN,39.74,98.52,64.18,44,10,1.52,Clear Sky
417,Krasnyy Kholm,RU,58.06,37.12,47.01,74,97,16.26,Overcast Clouds
418,Rio Claro,BR,-22.41,-47.56,69.26,35,0,3.09,Clear Sky
419,Adre,TD,13.47,22.2,68.94,92,100,10.63,Light Rain
420,Tupik,RU,54.43,119.93,34.83,74,35,5.5,Scattered Clouds
421,Moroni,KM,-11.7,43.26,73.0,77,1,18.07,Clear Sky
422,Barreirinhas,BR,-2.75,-42.83,86.58,52,37,6.82,Scattered Clouds
423,San Quintin,MX,30.48,-115.95,77.56,70,6,13.29,Clear Sky
424,Klyuchi,RU,52.27,79.17,65.44,52,11,7.63,Few Clouds
425,Mizdah,LY,31.45,12.98,77.22,44,6,8.34,Clear Sky
426,Merke,KZ,42.87,73.18,67.89,33,7,5.73,Clear Sky
427,Puerto Cabello,VE,10.47,-68.01,94.55,76,62,13.6,Broken Clouds
428,Vuktyl,RU,63.86,57.31,40.14,81,97,5.7,Overcast Clouds
429,Diamantino,BR,-14.41,-56.45,95.83,17,10,7.05,Clear Sky
430,Buchanan,LR,5.88,-10.05,75.7,88,100,10.51,Moderate Rain
431,Vestmannaeyjar,IS,63.44,-20.27,50.14,71,97,18.68,Overcast Clouds
432,Komyshuvakha,UA,47.72,35.53,74.46,46,100,13.94,Overcast Clouds
433,Allende,MX,25.28,-100.02,91.51,41,100,7.43,Overcast Clouds
434,Hamilton,US,39.18,-84.53,85.24,48,40,8.05,Scattered Clouds
435,Mehamn,NO,71.04,27.85,44.51,75,75,6.91,Broken Clouds
436,Abeche,TD,13.83,20.83,69.28,89,100,3.15,Moderate Rain
437,The Pas,CA,53.83,-101.25,78.82,57,0,8.05,Clear Sky
438,Bosaso,SO,11.28,49.18,89.8,49,77,14.29,Broken Clouds
439,Ballarat,AU,-37.57,143.85,41.68,88,89,2.84,Overcast Clouds
440,Xuddur,SO,4.12,43.89,71.62,71,38,19.22,Scattered Clouds
441,Kijang,KR,35.24,129.21,69.53,88,100,10.36,Light Rain
442,Ranapur,IN,22.65,74.53,79.34,75,100,3.33,Overcast Clouds
443,Oranjemund,NA,-28.55,16.43,58.69,78,36,3.89,Scattered Clouds
444,Troitskoye,RU,52.98,84.68,57.18,79,15,6.06,Few Clouds
445,Taseyevo,RU,57.22,94.9,50.36,97,100,3.62,Overcast Clouds
446,Rosarito,MX,32.33,-117.03,101.41,54,5,14.45,Clear Sky
447,Nanortalik,GL,60.14,-45.24,41.45,77,53,13.0,Broken Clouds
448,Chifeng,CN,42.27,118.96,49.15,60,0,3.22,Clear Sky
449,Lons-Le-Saunier,FR,46.75,5.75,65.52,77,100,4.88,Overcast Clouds
450,Charyshskoye,RU,51.4,83.56,56.03,62,29,5.7,Scattered Clouds
451,Molina,CL,-35.12,-71.28,55.13,67,100,3.44,Haze
452,Puerto El Triunfo,SV,13.28,-88.55,88.66,74,79,6.82,Light Rain
453,Esfahan,IR,32.66,51.68,62.24,14,0,5.53,Clear Sky
454,Monaghan,IE,54.25,-6.97,51.49,91,0,3.96,Clear Sky
455,Tilichiki,RU,60.47,166.1,46.92,62,0,9.57,Clear Sky
456,Miri,MY,4.41,114.01,73.54,100,20,0.0,Few Clouds
457,Mulki,IN,13.1,74.8,76.28,94,75,3.44,Broken Clouds
458,Waingapu,ID,-9.66,120.26,74.75,82,30,5.59,Scattered Clouds
459,Souillac,MU,-20.52,57.52,64.78,88,20,4.61,Few Clouds
460,The Valley,AI,18.22,-63.06,87.66,62,20,8.05,Few Clouds
461,High Level,CA,58.52,-117.14,69.91,32,75,4.61,Broken Clouds
462,Venezuela,VE,8.0,-66.0,85.41,61,55,4.34,Broken Clouds
463,Plaisance-Du-Touch,FR,43.57,1.3,76.8,61,0,9.22,Clear Sky
464,Portland,US,45.52,-122.68,91.87,45,0,7.0,Clear Sky
465,Lompoc,US,34.64,-120.46,81.84,66,0,14.97,Clear Sky
466,Mana,GF,5.66,-53.78,80.19,82,99,7.29,Overcast Clouds
467,Shetpe,KZ,44.17,52.12,81.3,19,0,5.37,Clear Sky
468,Constitucion,CL,-35.33,-72.42,54.12,84,100,8.14,Overcast Clouds
469,Nhulunbuy,AU,-12.23,136.77,75.81,88,30,6.91,Scattered Clouds
470,Algiers,DZ,36.75,3.04,82.09,62,93,0.83,Overcast Clouds
471,Tongchuan,CN,35.08,109.09,64.94,55,10,5.12,Clear Sky
472,Yulara,AU,-25.24,130.99,53.85,90,100,12.97,Light Rain
473,Severodvinsk,RU,64.56,39.83,44.71,66,100,17.29,Overcast Clouds
474,Kontagora,NG,10.4,5.47,72.84,94,96,3.6,Light Rain
475,Trairi,BR,-3.28,-39.27,78.13,72,10,11.54,Clear Sky
476,Qaqortoq,GL,60.72,-46.03,44.83,59,10,6.46,Clear Sky
477,Erenhot,CN,43.65,111.98,58.14,35,0,7.63,Clear Sky
478,Maniitsoq,GL,65.42,-52.9,38.84,72,34,7.05,Scattered Clouds
479,Petropavlovsk-Kamchatskiy,RU,53.05,158.65,48.79,93,0,6.71,Clear Sky
480,Ugoofaaru,MV,5.67,73.0,78.71,80,100,22.62,Overcast Clouds
481,Palmer,US,42.16,-72.33,81.77,43,20,17.27,Few Clouds
482,Owo,NG,7.2,5.59,70.66,98,100,4.29,Overcast Clouds
483,San Cristobal,VE,7.77,-72.22,84.38,60,37,5.73,Scattered Clouds
484,Korla,CN,41.76,86.15,71.56,36,2,12.19,Clear Sky
485,Asau,RO,46.43,26.4,63.52,91,98,2.08,Light Rain
486,San Ramon,US,37.78,-121.98,90.81,44,0,7.0,Clear Sky
487,Zhuhai,CN,22.28,113.57,83.98,89,20,10.36,Few Clouds
488,Sumenep,ID,-7.02,113.87,78.93,82,64,8.01,Broken Clouds
489,Galbshtadt,RU,53.23,78.98,64.63,50,76,6.6,Broken Clouds
490,Mahebourg,MU,-20.41,57.7,64.69,88,20,4.61,Few Clouds
491,Altamira,BR,-3.2,-52.21,93.29,46,20,5.75,Few Clouds
492,Nago,JP,26.59,127.98,83.25,83,88,18.54,Overcast Clouds
493,Oum Hadjer,TD,13.3,19.7,72.03,83,100,11.65,Light Rain
494,Mizan Teferi,ET,6.98,35.58,61.36,94,99,2.66,Overcast Clouds
495,Cidreira,BR,-30.18,-50.21,61.09,77,0,16.82,Clear Sky
496,Ziniare,BF,12.58,-1.3,78.84,73,97,7.05,Overcast Clouds
497,Kemi,FI,65.86,24.82,42.57,93,40,3.44,Scattered Clouds
498,Dawson,US,31.77,-84.45,90.82,46,100,2.8,Overcast Clouds
499,Fukue,JP,32.69,128.84,79.75,86,72,18.05,Broken Clouds
500,Cochabamba,BO,-17.39,-66.16,83.95,16,20,5.75,Few Clouds
501,Stony Plain,CA,53.53,-114.0,88.95,34,0,6.91,Clear Sky
502,Takaungu,KE,-3.68,39.86,73.42,80,35,13.02,Scattered Clouds
503,Hirara,JP,24.8,125.28,84.6,85,100,34.23,Moderate Rain
504,Bambanglipuro,ID,-7.95,110.28,74.98,91,100,7.38,Overcast Clouds
505,Vitim,RU,59.45,112.56,40.05,98,100,3.29,Light Rain
506,Santa Lucia,ES,27.91,-15.54,69.12,78,20,26.46,Few Clouds
507,Maturin,VE,9.75,-63.18,84.63,62,94,7.25,Overcast Clouds
508,Verkhnyaya Toyma,RU,62.23,45.0,46.53,92,100,15.7,Light Rain
509,Krasnovishersk,RU,60.41,57.08,49.98,89,97,5.97,Overcast Clouds
510,Bilma,NE,18.69,12.92,97.09,19,17,9.57,Few Clouds
511,Odesskoye,RU,54.21,72.97,68.11,37,56,8.52,Broken Clouds
512,Margate,GB,51.38,1.39,65.89,78,14,8.01,Few Clouds
513,Kindu,CD,-2.95,25.95,71.24,89,39,3.31,Light Rain
514,Ponta Delgada,PT,37.73,-25.67,77.5,78,20,3.44,Few Clouds
515,Kieta,PG,-6.22,155.63,79.54,83,91,1.39,Light Rain
516,Dire,ML,12.28,-10.97,69.62,98,100,1.36,Overcast Clouds
517,Ridgecrest,US,35.62,-117.67,107.65,10,0,8.05,Clear Sky
518,Eisiskes,LT,54.17,25.0,47.39,82,5,6.67,Clear Sky
519,Taloqan,AF,36.74,69.53,68.94,22,0,2.93,Clear Sky
520,Iqaluit,CA,63.75,-68.51,46.13,81,100,18.41,Light Rain
521,Selu,IN,19.47,76.47,81.9,71,100,6.24,Overcast Clouds
522,Chimbote,PE,-9.09,-78.58,65.55,73,8,13.0,Clear Sky
523,Champasak,LA,14.75,106.0,72.97,99,82,0.25,Broken Clouds
524,Saint-Augustin,CA,51.23,-58.65,69.03,82,92,16.96,Overcast Clouds
525,Burriana,ES,39.89,-0.09,83.7,69,0,9.22,Clear Sky
526,Batak,BG,41.95,24.22,58.6,87,90,2.8,Overcast Clouds
527,Sao Gabriel Da Cachoeira,BR,-0.13,-67.09,85.96,62,50,1.39,Scattered Clouds
528,Tarakan,ID,3.3,117.63,80.1,89,20,2.3,Few Clouds
529,Daru,PG,-9.08,143.21,77.34,92,48,11.7,Scattered Clouds
530,Takhtamygda,RU,54.1,123.57,33.84,87,70,1.95,Broken Clouds
531,Kirando,TZ,-7.42,30.6,78.06,55,60,8.21,Broken Clouds
532,Tottori,JP,35.5,134.23,76.06,98,99,4.94,Light Rain
533,Nuuk,GL,64.18,-51.72,45.21,61,75,8.05,Broken Clouds
534,Krosno,PL,49.69,21.77,58.46,100,100,4.88,Overcast Clouds
535,Minab,IR,27.15,57.08,86.32,70,100,0.0,Overcast Clouds
536,Bhongir,IN,17.51,78.89,76.66,88,100,6.06,Overcast Clouds
537,Erzin,TR,36.96,36.2,78.3,66,1,1.34,Clear Sky
538,Nishihara,JP,26.18,127.76,83.48,87,75,20.71,Broken Clouds
539,Port Blair,IN,11.67,92.75,81.48,81,100,6.31,Overcast Clouds
540,Cap Malheureux,MU,-19.98,57.61,71.28,72,7,6.89,Clear Sky
541,Marzuq,YE,14.4,46.47,77.99,62,1,4.81,Clear Sky
542,Newport,GB,51.59,-3.0,69.46,62,100,16.89,Overcast Clouds
543,Atambua,ID,-9.11,124.89,69.76,88,85,3.94,Overcast Clouds
544,Inirida,CO,3.87,-67.92,81.52,79,83,1.32,Broken Clouds
545,Cap-Aux-Meules,CA,47.38,-61.86,75.25,73,75,14.97,Broken Clouds
546,Joshimath,IN,30.57,79.57,69.53,90,86,0.96,Overcast Clouds
547,Karratha,AU,-20.74,116.85,69.51,53,36,4.94,Scattered Clouds
548,Paamiut,GL,61.99,-49.67,41.97,76,2,13.85,Clear Sky
549,Bonavista,CA,48.65,-53.11,68.72,67,99,12.97,Overcast Clouds
550,Aracuai,BR,-16.85,-42.07,66.67,51,38,4.38,Scattered Clouds
551,Luwuk,ID,-0.95,122.79,75.27,86,69,5.21,Broken Clouds
552,Finnsnes,NO,69.23,17.98,45.21,87,83,2.84,Broken Clouds
553,Avallon,FR,47.48,3.9,66.04,47,100,2.66,Overcast Clouds
554,Tingo Maria,PE,-9.29,-76.01,89.91,48,20,5.75,Few Clouds
555,Gushikawa,JP,26.35,127.87,83.43,89,20,20.71,Few Clouds
556,Shu,KZ,43.6,73.76,68.14,21,0,4.21,Clear Sky
557,Nyurba,RU,63.28,118.33,37.76,92,75,4.14,Broken Clouds
558,Aksarka,RU,66.56,67.8,42.37,72,95,1.92,Overcast Clouds
559,Qinzhou,CN,21.95,108.62,77.02,93,100,10.18,Overcast Clouds
560,Chernyshevskiy,RU,63.01,112.47,34.57,96,100,2.44,Overcast Clouds
561,Naze,JP,28.37,129.48,81.52,83,36,15.35,Scattered Clouds
562,Katsuura,JP,35.13,140.3,80.69,86,9,18.28,Clear Sky
563,Limbang,MY,4.75,115.0,75.31,97,100,1.32,Overcast Clouds
564,Cicciano,IT,40.96,14.54,79.02,86,99,3.0,Overcast Clouds
565,Rawson,AR,-43.3,-65.1,60.87,34,85,3.87,Overcast Clouds
566,Bethanien,NA,-26.5,17.16,70.93,27,100,2.86,Overcast Clouds
567,Gurupa,BR,-1.41,-51.64,85.55,57,45,2.44,Scattered Clouds
568,Ligayan,PH,4.65,119.47,82.87,71,99,2.15,Overcast Clouds
569,Maumere,ID,-8.62,122.21,77.04,85,80,4.79,Broken Clouds
570,Vila Franca Do Campo,PT,37.72,-25.43,77.2,81,92,1.77,Overcast Clouds
571,Millbrook,US,32.48,-86.36,92.32,47,0,6.91,Clear Sky
572,Deputatskiy,RU,69.3,139.9,43.84,83,73,2.59,Broken Clouds
573,Mitu,CO,1.2,-70.17,81.1,72,73,2.48,Broken Clouds
574,Oriximina,BR,-1.77,-55.87,92.12,37,13,1.86,Light Rain
575,Santa Maria,BR,-29.68,-53.81,70.9,53,0,10.36,Clear Sky
576,Albacete,ES,38.83,-2.0,81.41,28,0,8.05,Clear Sky
577,Loksa,EE,59.58,25.72,51.93,70,97,17.81,Overcast Clouds
578,Boende,CD,-0.22,20.87,73.29,91,100,1.99,Light Rain
579,Somanda,TZ,-3.37,33.95,73.44,45,92,14.09,Overcast Clouds
580,Gat,IL,31.61,34.76,83.08,100,1,4.0,Clear Sky
581,Panindicuaro,MX,19.97,-101.77,69.93,77,92,4.81,Overcast Clouds
582,Bam,IR,29.11,58.36,80.92,9,92,8.08,Overcast Clouds
583,Ahipara,NZ,-35.17,173.17,55.42,73,100,4.97,Overcast Clouds
584,Kirya,TZ,-3.92,37.48,69.93,63,72,10.11,Broken Clouds
585,Mitsamiouli,KM,-11.38,43.28,75.51,71,0,14.65,Clear Sky
586,Ostrovnoy,RU,68.05,39.51,45.12,74,100,15.23,Light Rain
587,Vestmanna,FO,62.16,-7.17,49.12,87,75,13.8,Broken Clouds
588,Miraflores,MX,19.22,-98.81,77.04,66,100,1.81,Overcast Clouds
589,Henties Bay,NA,-22.12,14.28,57.43,88,29,5.53,Scattered Clouds
590,Frankfurt,DE,50.12,8.68,68.36,62,0,10.36,Clear Sky
591,Luau,AO,-10.71,22.22,74.79,34,97,2.37,Overcast Clouds
592,Monroe,US,43.15,-77.68,78.49,54,20,16.11,Few Clouds
593,Ovsyanka,RU,55.96,92.55,61.77,95,100,6.08,Light Rain
594,Honiara,SB,-9.43,159.95,78.1,88,85,7.16,Overcast Clouds
595,Sorland,NO,67.67,12.69,50.45,68,100,9.64,Overcast Clouds
596,Son La,VN,21.32,103.9,69.3,97,100,1.95,Overcast Clouds
597,Sao Borja,BR,-28.66,-56.0,72.95,69,5,8.68,Clear Sky
598,Eureka,US,40.8,-124.16,65.59,87,41,5.01,Scattered Clouds
599,Zhanaozen,KZ,43.3,52.8,81.93,16,0,8.12,Clear Sky
600,Aleksandrov Gay,RU,50.15,48.57,77.68,30,7,1.92,Clear Sky
601,Lima,PE,-12.04,-77.03,61.05,72,100,13.8,Overcast Clouds
602,Nurota,UZ,40.56,65.69,72.12,18,0,5.84,Clear Sky
603,Bafoulabe,ML,13.81,-10.83,70.97,95,100,0.85,Overcast Clouds
604,Saint-Michel-Des-Saints,CA,46.68,-73.92,63.93,64,100,2.46,Overcast Clouds
605,Strezhevoy,RU,60.73,77.59,43.88,96,100,9.06,Moderate Rain
606,Benguela,AO,-12.58,13.41,69.13,84,71,2.06,Broken Clouds
607,Ulladulla,AU,-35.35,150.47,51.76,89,14,4.34,Few Clouds
608,Akyab,MM,20.15,92.9,81.45,81,100,3.2,Overcast Clouds
609,Mvuma,ZW,-19.28,30.53,49.93,76,7,10.74,Clear Sky
610,Nisia Floresta,BR,-6.09,-35.21,80.98,71,100,14.23,Overcast Clouds
611,Los Algarrobos,PA,8.5,-82.43,84.61,74,40,13.8,Scattered Clouds
612,Isangel,VU,-19.55,169.27,74.73,63,93,16.84,Overcast Clouds
613,Athens,GR,37.98,23.72,80.19,77,20,3.0,Few Clouds
614,Sterling,US,39.01,-77.43,86.14,44,40,13.8,Scattered Clouds
615,Ilulissat,GL,69.22,-51.1,39.22,87,75,8.05,Light Rain
616,Payakumbuh,ID,-0.22,100.63,69.28,97,95,2.13,Light Rain
617,Tshikapa,CD,-6.42,20.8,75.45,76,46,2.95,Light Rain
618,Doha,QA,25.29,51.53,93.09,68,0,3.44,Clear Sky
619,Aloleng,PH,16.13,119.78,81.72,79,100,3.71,Overcast Clouds
620,Umea,SE,63.83,20.26,46.9,93,0,4.61,Clear Sky
621,Beringovskiy,RU,63.05,179.32,45.86,91,100,20.78,Moderate Rain
622,Zhezkazgan,KZ,47.8,67.71,75.97,25,4,6.26,Clear Sky
623,Lerwick,GB,60.15,-1.15,53.6,72,94,1.21,Overcast Clouds
624,Alvik,SE,60.75,14.87,51.53,70,61,5.61,Broken Clouds
625,Sola,VU,-13.88,167.55,79.81,73,98,23.64,Overcast Clouds
626,Montpellier,FR,43.61,3.88,77.52,76,0,4.61,Clear Sky
627,Jacareacanga,BR,-6.22,-57.75,96.06,24,3,1.79,Clear Sky
628,Guia De Isora,ES,28.21,-16.78,73.33,100,100,6.24,Overcast Clouds
629,Pangody,RU,65.85,74.49,40.17,86,82,7.72,Broken Clouds
630,Marsh Harbour,BS,26.54,-77.06,84.16,70,29,8.43,Scattered Clouds
631,Witu,KE,-2.39,40.44,73.56,78,13,13.49,Few Clouds
632,Okhotsk,RU,59.38,143.3,56.32,91,15,8.41,Few Clouds
633,Antofagasta,CL,-23.65,-70.4,56.48,76,43,7.16,Scattered Clouds
634,Marrakesh,MA,31.63,-8.01,91.47,38,40,12.66,Scattered Clouds
635,Pogar,RU,52.55,33.26,50.36,75,57,6.67,Broken Clouds
636,Imeni Poliny Osipenko,RU,52.42,136.49,52.65,97,25,4.97,Scattered Clouds
637,Virginia Beach,US,36.85,-75.98,92.01,49,40,10.36,Scattered Clouds
638,Maiduguri,NG,11.85,13.16,77.52,80,93,4.99,Light Rain
639,San-Pedro,CI,4.75,-6.64,74.05,94,90,8.28,Light Rain
640,El Carrizo,MX,24.03,-106.88,83.89,77,100,4.81,Overcast Clouds
641,Quechultenango,MX,17.42,-99.22,80.29,75,75,3.0,Broken Clouds
642,Wajima,JP,37.4,136.9,76.35,96,100,11.05,Heavy Intensity Rain
643,Bobrovka,RU,54.05,61.75,68.0,45,24,7.83,Few Clouds
644,Contai,IN,21.78,87.75,82.51,85,33,8.66,Scattered Clouds
645,Dinghai,CN,26.28,119.79,77.92,84,71,18.95,Broken Clouds
646,Xining,CN,36.62,101.77,49.14,86,99,1.79,Overcast Clouds
647,Upata,VE,8.01,-62.4,83.19,85,100,2.46,Overcast Clouds
648,Port-Gentil,GA,-0.72,8.78,76.96,83,75,13.8,Broken Clouds
649,Pensilvania,US,40.27,-76.91,85.19,44,75,14.0,Broken Clouds
650,Neiafu,TO,-18.65,-173.98,75.88,78,40,5.75,Scattered Clouds
651,Mercedes,AR,-34.65,-59.43,68.95,57,97,7.74,Overcast Clouds
652,Chapais,CA,49.78,-74.85,58.78,86,100,6.31,Overcast Clouds
653,Villa Bruzual,VE,9.33,-69.12,84.31,68,77,3.71,Broken Clouds
654,Agaro,ET,7.85,36.65,60.26,96,91,2.91,Overcast Clouds
655,Minna,NG,9.61,6.56,74.91,88,75,5.75,Light Rain
656,San Antonio,US,29.42,-98.49,93.87,55,75,11.5,Broken Clouds
657,Gillette,US,44.29,-105.5,92.8,16,0,5.01,Clear Sky
658,Taywarah,AF,33.35,64.42,53.38,19,0,4.72,Clear Sky
659,Kabelvag,NO,68.21,14.48,48.2,81,75,4.61,Broken Clouds
660,Sakaiminato,JP,35.55,133.23,73.38,100,75,8.05,Broken Clouds
661,Mataram,ID,-8.58,116.12,72.41,88,90,10.38,Overcast Clouds
662,Ibra,OM,22.69,58.53,81.86,52,3,4.09,Clear Sky
663,Kungurtug,RU,50.6,97.52,44.6,78,48,1.99,Scattered Clouds
664,Mineral Wells,US,32.81,-98.11,86.32,74,75,10.36,Light Rain
